{
"type": "FeatureCollection",
"crs": { "type": "name", "properties": { "name": "urn:ogc:def:crs:OGC:1.3:CRS84" } },
"features": [
{ "type": "Feature", "properties": { "Name": "Richmond Fire Station 8", "StationNum": "8", "Address": "1018 Williamsburg Road", "StatePlane": 11800747.395500001, "StatePla_1": 3712863.33898, "Latitude": 37.5148628, "Longitude": -77.40414623, "CreatedBy": "rosewl", "CreatedDat": "2007\/08\/13", "EditBy": "rosewl", "EditDate": "2007\/08\/13" }, "geometry": { "type": "Point", "coordinates": [ 11800747.395356774330139, 3712863.339088693261147 ] } },
{ "type": "Feature", "properties": { "Name": "Richmond Fire Station 13", "StationNum": "13", "Address": "411 E Commerce Road", "StatePlane": 11790987.404899999, "StatePla_1": 3714087.8456100002, "Latitude": 37.51853195, "Longitude": -77.43774747000001, "CreatedBy": "rosewl", "CreatedDat": "2007\/08\/13", "EditBy": "rosewl", "EditDate": "2007\/08\/13" }, "geometry": { "type": "Point", "coordinates": [ 11790987.405034273862839, 3714087.845497936010361 ] } },
{ "type": "Feature", "properties": { "Name": "Richmond Fire Station 22", "StationNum": "22", "Address": "2420 Broad Rock Blvd", "StatePlane": 11779256.623, "StatePla_1": 3701266.0674200002, "Latitude": 37.48367571, "Longitude": -77.47867121, "CreatedBy": "rosewl", "CreatedDat": "2007\/10\/22", "EditBy": "rosewl", "EditDate": "2007\/10\/22" }, "geometry": { "type": "Point", "coordinates": [ 11779256.623049691319466, 3701266.067335769534111 ] } },
{ "type": "Feature", "properties": { "Name": "Richmond Fire Station 21", "StationNum": "21", "Address": "2505 Jefferson Davis Hwy", "StatePlane": 11789048.5254, "StatePla_1": 3702897.3972100001, "Latitude": 37.48786001, "Longitude": -77.44486357, "CreatedBy": "rosewl", "CreatedDat": "2007\/10\/22", "EditBy": "rosewl", "EditDate": "2007\/10\/22" }, "geometry": { "type": "Point", "coordinates": [ 11789048.525381863117218, 3702897.397078350186348 ] } },
{ "type": "Feature", "properties": { "Name": "Richmond Fire Station 1", "StationNum": "1", "Address": "308 N 24th St", "StatePlane": 11796198.827099999, "StatePla_1": 3719257.0618699999, "Latitude": 37.53256535, "Longitude": -77.41957565, "CreatedBy": "rosewl", "CreatedDat": "2009\/08\/10", "EditBy": "rosewl", "EditDate": "2009\/08\/10" }, "geometry": { "type": "Point", "coordinates": [ 11796198.82702611386776, 3719257.061865523457527 ] } },
{ "type": "Feature", "properties": { "Name": "Richmond Fire Station 20", "StationNum": "20", "Address": "4715 Forest Hill Ave", "StatePlane": 11776677.5945, "StatePla_1": 3714827.6254500002, "Latitude": 37.52099551, "Longitude": -77.48705759000001, "CreatedBy": "rosewl", "CreatedDat": "2007\/08\/13", "EditBy": "rosewl", "EditDate": "2007\/08\/13" }, "geometry": { "type": "Point", "coordinates": [ 11776677.594415113329887, 3714827.625514432787895 ] } },
{ "type": "Feature", "properties": { "Name": "Richmond Fire Station 11", "StationNum": "11", "Address": "1235 N 28th St", "StatePlane": 11799534.560699999, "StatePla_1": 3721370.7028299998, "Latitude": 37.53826445, "Longitude": -77.40798832, "CreatedBy": "rosewl", "CreatedDat": "2007\/08\/13", "EditBy": "rosewl", "EditDate": "2007\/08\/13" }, "geometry": { "type": "Point", "coordinates": [ 11799534.560512110590935, 3721370.702979430556297 ] } },
{ "type": "Feature", "properties": { "Name": "Richmond Fire Station 25", "StationNum": "25", "Address": "8800 W Huguenot Road", "StatePlane": 11755408.3014, "StatePla_1": 3721184.9459000002, "Latitude": 37.53905845, "Longitude": -77.56017482, "CreatedBy": "rosewl", "CreatedDat": "2007\/08\/13", "EditBy": "rosewl", "EditDate": "2007\/08\/13" }, "geometry": { "type": "Point", "coordinates": [ 11755408.301323860883713, 3721184.945805013179779 ] } },
{ "type": "Feature", "properties": { "Name": "Richmond Fire Station 16", "StationNum": "16", "Address": "3901 Chamberlayne Ave", "StatePlane": 11787863.737199999, "StatePla_1": 3739517.9087399999, "Latitude": 37.58846434, "Longitude": -77.44753971, "CreatedBy": "rosewl", "CreatedDat": "2007\/08\/13", "EditBy": "rosewl", "EditDate": "2007\/08\/13" }, "geometry": { "type": "Point", "coordinates": [ 11787863.737069025635719, 3739517.908810943365097 ] } },
{ "type": "Feature", "properties": { "Name": "Richmond Fire Station 6", "StationNum": "6", "Address": "138 S Jefferson St", "StatePlane": 11787963.829399999, "StatePla_1": 3722852.8470899998, "Latitude": 37.54269561, "Longitude": -77.44783531, "CreatedBy": "rosewl", "CreatedDat": "2007\/08\/13", "EditBy": "rosewl", "EditDate": "2007\/08\/13" }, "geometry": { "type": "Point", "coordinates": [ 11787963.829388529062271, 3722852.846996769309044 ] } },
{ "type": "Feature", "properties": { "Name": "Richmond Fire Station 5", "StationNum": "5", "Address": "324 W Leigh St", "StatePlane": 11789328.1512, "StatePla_1": 3725876.6374300001, "Latitude": 37.55095773, "Longitude": -77.44301313, "CreatedBy": "rosewl", "CreatedDat": "2007\/08\/13", "EditBy": "rosewl", "EditDate": "2007\/08\/13" }, "geometry": { "type": "Point", "coordinates": [ 11789328.151134938001633, 3725876.637537106871605 ] } },
{ "type": "Feature", "properties": { "Name": "Richmond Fire Station 10", "StationNum": "10", "Address": "900 Hermitage Road", "StatePlane": 11784168.1701, "StatePla_1": 3729090.7827099999, "Latitude": 37.5599418, "Longitude": -77.46068932, "CreatedBy": "rosewl", "CreatedDat": "2007\/08\/13", "EditBy": "rosewl", "EditDate": "2007\/08\/13" }, "geometry": { "type": "Point", "coordinates": [ 11784168.169985115528107, 3729090.782683596014977 ] } },
{ "type": "Feature", "properties": { "Name": "Richmond Fire Station 18", "StationNum": "18", "Address": "412 N Thompson St", "StatePlane": 11777132.1248, "StatePla_1": 3729834.75532, "Latitude": 37.56219516, "Longitude": -77.48493402, "CreatedBy": "rosewl", "CreatedDat": "2007\/08\/13", "EditBy": "rosewl", "EditDate": "2007\/08\/13" }, "geometry": { "type": "Point", "coordinates": [ 11777132.124674022197723, 3729834.755277022719383 ] } },
{ "type": "Feature", "properties": { "Name": "Richmond Fire Station 15", "StationNum": "15", "Address": "2614 First Ave", "StatePlane": 11795607.321, "StatePla_1": 3731658.7031, "Latitude": 37.56664138, "Longitude": -77.42112665000001, "CreatedBy": "rosewl", "CreatedDat": "2007\/08\/13", "EditBy": "rosewl", "EditDate": "2007\/08\/13" }, "geometry": { "type": "Point", "coordinates": [ 11795607.320991277694702, 3731658.703072682023048 ] } },
{ "type": "Feature", "properties": { "Name": "Richmond Fire Station 14", "StationNum": "14", "Address": "2932 Hawthorne Ave", "StatePlane": 11789007.7467, "StatePla_1": 3733473.57644, "Latitude": 37.57183034, "Longitude": -77.44382511000001, "CreatedBy": "rosewl", "CreatedDat": "2007\/08\/13", "EditBy": "rosewl", "EditDate": "2007\/08\/13" }, "geometry": { "type": "Point", "coordinates": [ 11789007.746592029929161, 3733473.576411440968513 ] } },
{ "type": "Feature", "properties": { "Name": "Richmond Fire Station 19", "StationNum": "19", "Address": "311 Maple Ave", "StatePlane": 11767096.4, "StatePla_1": 3733908.9543599999, "Latitude": 37.57367512, "Longitude": -77.51940951, "CreatedBy": "rosewl", "CreatedDat": "2007\/08\/13", "EditBy": "rosewl", "EditDate": "2007\/08\/13" }, "geometry": { "type": "Point", "coordinates": [ 11767096.399994865059853, 3733908.954477682709694 ] } },
{ "type": "Feature", "properties": { "Name": "Richmond Fire Station 23", "StationNum": "23", "Address": "495 LaBrook Concourse", "StatePlane": 11770443.5112, "StatePla_1": 3706729.40515, "Latitude": 37.49893747, "Longitude": -77.50884545, "CreatedBy": "rosewl", "CreatedDat": "2007\/08\/13", "EditBy": "rosewl", "EditDate": "2007\/08\/13" }, "geometry": { "type": "Point", "coordinates": [ 11770443.511082768440247, 3706729.4051623493433 ] } },
{ "type": "Feature", "properties": { "Name": "Richmond Fire Station 24", "StationNum": "24", "Address": "7400 Forest Hill Ave", "StatePlane": 11763261.6667, "StatePla_1": 3720593.64965, "Latitude": 37.53721679, "Longitude": -77.53311127000001, "CreatedBy": "rosewl", "CreatedDat": "2007\/10\/22", "EditBy": "rosewl", "EditDate": "2007\/10\/22" }, "geometry": { "type": "Point", "coordinates": [ 11763261.666522607207298, 3720593.649743527173996 ] } },
{ "type": "Feature", "properties": { "Name": "Richmond Fire Station 12", "StationNum": "12", "Address": "2223 W Cary St", "StatePlane": 11781476.852299999, "StatePla_1": 3725162.6309000002, "Latitude": 37.54923524, "Longitude": -77.4701214, "CreatedBy": "rosewl", "CreatedDat": "2007\/08\/13", "EditBy": "rosewl", "EditDate": "2007\/08\/13" }, "geometry": { "type": "Point", "coordinates": [ 11781476.852205023169518, 3725162.630763024091721 ] } },
{ "type": "Feature", "properties": { "Name": "Richmond Fire Station 17", "StationNum": "17", "Address": "2211 Semmes Ave", "StatePlane": 11785471.5252, "StatePla_1": 3715045.3888400001, "Latitude": 37.52133052, "Longitude": -77.45672862000001, "CreatedBy": "waldrosr", "CreatedDat": "2012\/11\/07", "EditBy": "waldrosr", "EditDate": "2012\/11\/07" }, "geometry": { "type": "Point", "coordinates": [ 11785471.525318026542664, 3715045.388858437538147 ] } },
{ "type": "Feature", "properties": { "Name": "Richmond Fire Headquarters", "StationNum": "HQ", "Address": "201 E Franklin St", "StatePlane": 0.0, "StatePla_1": 0.0, "Latitude": 0.0, "Longitude": 0.0, "CreatedBy": "waldrosr", "CreatedDat": "2018\/02\/19", "EditBy": "waldrosr", "EditDate": "2018\/02\/19" }, "geometry": { "type": "Point", "coordinates": [ 11789732.916073441505432, 3722836.401819691061974 ] } }
]
}
